[
    {
    	"id": 3,
        "lat": 47.451551,
        "lng": 5.578926,
        "address": " Avenue des Parcs",
        "city": "Arc-lès-Gray",
        "cp": "70100",
        "description": "Gray Bassin",
        "icon": "https://www.interval.coop/images/icons/icon-map-interval.png",
        "mail": "gray@interval.coop",
        "name": "Gray Bassin",
        "tel": "0384651076",
        "url": "/component/mymaplocations/gray.html"
    },
    {
    	"id": 4,
        "lat": 47.456818,
        "lng": 5.598071,
        "address": "Rue des Giranaux",
        "city": "Arc-lès-Gray",
        "cp": "70100",
        "description": "Arc-les-Gray Siège social",
        "icon": "https://www.interval.coop/images/icons/icon-map-interval.png",
        "name": "Arc-les-Gray Siège social",
        "tel": "03 84 64 73 00",
        "url": "/component/mymaplocations/arc-les-gray-siège-social.html"
    },
    {
    	"id": 5,
        "lat": 47.456713,
        "lng": 5.598984,
        "address": "Rue des Giranaux",
        "city": "Arc-lès-Gray",
        "cp": "70100",
        "description": "Gray ZI",
        "icon": "https://www.interval.coop/images/icons/icon-map-interval.png",
        "name": "Gray ZI",
        "tel": "03 84 64 80 55",
        "url": "/component/mymaplocations/gray-zi.html"
    },
    {
    	"id": 6,
        "lat": 47.550191,
        "lng": 6.445237,
        "address": "200 Rue de la Varvotte",
        "city": "Villersexel",
        "cp": "70110",
        "description": "Villersexel",
        "icon": "https://www.interval.coop/images/icons/icon-map-interval.png",
        "mail": "villersexel@interval.coop",
        "name": "Villersexel",
        "tel": "03 84 63 45 91",
        "url": "/component/mymaplocations/villersexel.html"
    },
    {
    	"id": 7,
        "lat": 47.690355,
        "lng": 6.110219,
        "address": "Rue de la la Marnière",
        "city": "Bougnon",
        "cp": "70170",
        "description": "Bougnon",
        "icon": "https://www.interval.coop/images/icons/icon-map-interval.png",
        "mail": "bougnon@interval.coop",
        "name": "Bougnon",
        "url": "/component/mymaplocations/bougnon.html"
    },
    {
    	"id": 8,
        "lat": 47.551992,
        "lng": 6.919885,
        "address": "Zone Industrielle",
        "city": "Bourogne",
        "cp": "90140",
        "description": "Bourogne",
        "icon": "https://www.interval.coop/images/icons/icon-map-interval.png",
        "mail": "bourogne@interval.coop",
        "name": "Bourogne",
        "tel": "03 84 27 82 89",
        "url": "/component/mymaplocations/bourogne.html"
    },
    {
    	"id": 9,
        "lat": 47.437858,
        "lng": 6.213091,
        "address": "Rue de la Gare",
        "city": "Loulans-Verchamp",
        "cp": "70230",
        "description": "Loulans Verchamps",
        "icon": "https://www.interval.coop/images/icons/icon-map-interval.png",
        "mail": "cenans@interval.coop",
        "name": "Loulans Verchamps",
        "tel": "03 84 68 32 33",
        "url": "/component/mymaplocations/loulans-verchamps.html"
    },
    {
    	"id": 10,
        "lat": 47.673401,
        "lng": 6.515508,
        "address": "ZAC La Saline",
        "city": "Lure",
        "cp": "70200",
        "description": "Lure",
        "icon": "https://www.interval.coop/images/icons/icon-map-interval.png",
        "mail": "lure@interval.coop",
        "name": "Lure",
        "tel": "03 84 62 75 51",
        "url": "/component/mymaplocations/lure.html"
    },
    {
    	"id": 11,
        "lat": 47.8102,
        "lng": 6.112916,
        "address": "Route de Cubry-les-Faverney",
        "city": "Menoux",
        "cp": "70160",
        "description": "Menoux",
        "icon": "https://www.interval.coop/images/icons/icon-map-interval.png",
        "mail": "menoux@interval.coop",
        "name": "Menoux",
        "tel": "03 84 91 12 25",
        "url": "/component/mymaplocations/menoux.html"
    },
    {
    	"id": 12,
        "lat": 47.425774,
        "lng": 6.083538,
        "address": "9012A Zone d'activité industrielle",
        "city": "Rioz",
        "cp": "70190",
        "description": "Rioz",
        "icon": "https://www.interval.coop/images/icons/icon-map-interval.png",
        "mail": "rioz@interval;coop",
        "name": "Rioz",
        "tel": "03 84 91 91 91",
        "url": "/component/mymaplocations/rioz.html"
    },
    {
    	"id": 13,
        "lat": 47.792398,
        "lng": 6.316809,
        "address": " Rue du Pommey",
        "city": "Sainte-Marie-en-Chaux",
        "cp": "70300",
        "description": "Ste-Marie-en-Chaux",
        "icon": "https://www.interval.coop/images/icons/icon-map-interval.png",
        "mail": "stemarieenchaux@interval.coop",
        "name": "Ste-Marie-en-Chaux",
        "tel": "03 84 94 98 51",
        "url": "/component/mymaplocations/ste-marie-en-chaux.html"
    },
    {
    	"id": 14,
        "lat": 47.695902,
        "lng": 6.292028,
        "address": "Lieu dit Les Patis",
        "city": "Saulx",
        "cp": "70240",
        "description": "Saulx",
        "icon": "https://www.interval.coop/images/icons/icon-map-interval.png",
        "mail": "saulx@interval.coop",
        "name": "Saulx",
        "tel": "03 84 95 96 78",
        "url": "/component/mymaplocations/saulx.html"
    },
    {
    	"id": 15,
        "lat": 47.62799,
        "lng": 6.1151,
        "address": " Avenue des Rives du Lac",
        "city": "Vaivre-et-Montoille",
        "cp": "70000",
        "description": "Vaivre-et-Montoille",
        "icon": "https://www.interval.coop/images/icons/icon-map-interval.png",
        "mail": "vaivre@interval.coop",
        "name": "Vaivre-et-Montoille",
        "tel": "03 84 77 78 66",
        "url": "/component/mymaplocations/vaivre-et-montoille.html"
    },
    {
    	"id": 16,
        "lat": 47.659871,
        "lng": 5.826303,
        "address": "2 Rue de la Fontaine",
        "city": "Vauconcourt-Nervezain",
        "cp": "70120",
        "description": "Vauconcourt",
        "icon": "https://www.interval.coop/images/icons/icon-map-interval.png",
        "mail": "vauconcourt@interval.coop",
        "name": "Vauconcourt",
        "tel": "03 84 92 01 07",
        "url": "/component/mymaplocations/vauconcourt.html"
    },
    {
    	"id": 17,
        "lat": 47.457256,
        "lng": 5.763675,
        "address": "Route d'Igny",
        "city": "Angirey",
        "cp": "70700",
        "description": "Angirey",
        "icon": "https://www.interval.coop/images/icons/icon-map-interval.png",
        "mail": "angirey@interval.coop",
        "name": "Angirey",
        "tel": "03 84 32 74 49",
        "url": "/component/mymaplocations/angirey.html"
    },
    {
    	"id": 18,
        "lat": 47.450414,
        "lng": 5.888651,
        "address": " Champs Rambert",
        "city": "Frasne-le-Château",
        "cp": "70700",
        "description": "Frasne-le-Château",
        "icon": "https://www.interval.coop/images/icons/icon-map-interval.png",
        "mail": "frasnelechateau@interval.coop",
        "name": "Frasne-le-Château",
        "tel": "03 84 32 40 80",
        "url": "/component/mymaplocations/frasne-le-château.html"
    },
    {
    	"id": 19,
        "lat": 47.83638,
        "lng": 5.906405,
        "address": "17 Rue du Stade",
        "city": "Jussey",
        "cp": "70500",
        "description": "Jussey",
        "icon": "https://www.interval.coop/images/icons/icon-map-interval.png",
        "mail": "jussey@interval.coop",
        "name": "Jussey",
        "tel": "03 84 92 22 67",
        "url": "/component/mymaplocations/jussey.html"
    },
    {
    	"id": 20,
        "lat": 47.737941,
        "lng": 5.771677,
        "address": " Route de Lavigney",
        "city": "Molay",
        "cp": "70120",
        "description": "Melin",
        "icon": "https://www.interval.coop/images/icons/icon-map-interval.png",
        "mail": "melin@interval.coop",
        "name": "Melin",
        "tel": "03 84 92 16 19",
        "url": "/component/mymaplocations/melin.html"
    },
    {
    	"id": 21,
        "lat": 47.568527,
        "lng": 5.965645,
        "address": "18 Rue de la Gare",
        "city": "Noidans-le-Ferroux",
        "cp": "70130",
        "description": "Noidans-le-Ferroux",
        "icon": "https://www.interval.coop/images/icons/icon-map-interval.png",
        "mail": "noidansleferroux@interval.coop",
        "name": "Noidans-le-Ferroux",
        "tel": "03 84 68 41 33",
        "url": "/component/mymaplocations/noidans-le-ferroux.html"
    },
    {
    	"id": 22,
        "lat": 47.619238,
        "lng": 5.706931,
        "address": "lieu-dit Le Bourg",
        "city": "Roche-et-Raucourt",
        "cp": "70180",
        "description": "Roche-et-Raucourt",
        "icon": "https://www.interval.coop/images/icons/icon-map-interval.png",
        "mail": "roche@interval.coop",
        "name": "Roche-et-Raucourt",
        "tel": "03 84 31 30 55",
        "url": "/component/mymaplocations/roche-et-raucourt.html"
    },
    {
    	"id": 23,
        "lat": 47.531775,
        "lng": 5.824153,
        "address": "4 Place de l'École",
        "city": "Vellexon-Queutrey-et-Vaudey",
        "cp": "70130",
        "description": "Vellexon",
        "icon": "https://www.interval.coop/images/icons/icon-map-interval.png",
        "mail": "vellexon@interval.coop",
        "name": "Vellexon",
        "tel": "03 84 78 40 16",
        "url": "/component/mymaplocations/vellexon.html"
    },
    {
    	"id": 24,
        "lat": 47.480009,
        "lng": 5.486799,
        "address": "15 Route de la Gare",
        "city": "Autrey-lès-Gray",
        "cp": "70100",
        "description": "Autrey-les-Gray",
        "icon": "https://www.interval.coop/images/icons/icon-map-interval.png",
        "mail": "autrey@interval.coop",
        "name": "Autrey-les-Gray",
        "tel": "03 84 32 30 79",
        "url": "/component/mymaplocations/autrey-les-gray.html"
    },
    {
    	"id": 25,
        "lat": 47.613332,
        "lng": 5.524015,
        "address": "Rue de la Gare",
        "city": "Champlitte",
        "cp": "70600",
        "description": "Champlitte",
        "icon": "https://www.interval.coop/images/icons/icon-map-interval.png",
        "mail": "champlitte@interval.coop",
        "name": "Champlitte",
        "tel": "03 84 67 61 90",
        "url": "/component/mymaplocations/champlitte.html"
    },
    {
    	"id": 26,
        "lat": 47.298957,
        "lng": 5.628049,
        "address": "Route de Pesmes",
        "city": "Chaumercenne",
        "cp": "70140",
        "description": "Chaumercenne",
        "icon": "https://www.interval.coop/images/icons/icon-map-interval.png",
        "mail": "chaumercenne@interval.coop",
        "name": "Chaumercenne",
        "tel": "03 84 32 22 08",
        "url": "/component/mymaplocations/chaumercenne.html"
    },
    {
    	"id": 27,
        "lat": 47.387317,
        "lng": 5.755472,
        "address": "4 Rue de Cugney",
        "city": "Choye",
        "cp": "70700",
        "description": "Choye",
        "icon": "https://www.interval.coop/images/icons/icon-map-interval.png",
        "mail": "choye@interval.coop",
        "name": "Choye",
        "tel": "03 84 32 83 32",
        "url": "/component/mymaplocations/choye.html"
    },
    {
    	"id": 28,
        "lat": 47.319687,
        "lng": 5.746791,
        "address": "Route d'Avrigney",
        "city": "Cult",
        "cp": "70150",
        "description": "Cult",
        "icon": "https://www.interval.coop/images/icons/icon-map-interval.png",
        "mail": "cult",
        "name": "Cult",
        "tel": "03 84 31 72 82",
        "url": "/component/mymaplocations/cult.html"
    },
    {
    	"id": 29,
        "lat": 47.380998,
        "lng": 5.548998,
        "address": "1 Rue d'Apremont",
        "city": "Germigney",
        "cp": "70100",
        "description": "Germigney",
        "icon": "https://www.interval.coop/images/icons/icon-map-interval.png",
        "mail": "germigney@interval.coop",
        "name": "Germigney",
        "tel": "03 84 67 48 23",
        "url": "/component/mymaplocations/germigney.html"
    },
    {
    	"id": 30,
        "lat": 47.288643,
        "lng": 5.65643,
        "address": "Route de Chaumercenne",
        "city": "Montagney",
        "cp": "70140",
        "description": "Montagney",
        "icon": "https://www.interval.coop/images/icons/icon-map-interval.png",
        "mail": "montagney@interval.coop",
        "name": "Montagney",
        "tel": "03 84 32 20 34",
        "url": "/component/mymaplocations/montagney.html"
    },
    {
    	"id": 31,
        "lat": 47.273075,
        "lng": 5.876943,
        "address": "Lieu-dit Champs Breland",
        "city": "Noironte",
        "cp": "25170",
        "description": "Noironte",
        "icon": "https://www.interval.coop/images/icons/icon-map-interval.png",
        "mail": "noironte@interval.coop",
        "name": "Noironte",
        "tel": "03 81 58 17 24",
        "url": "/component/mymaplocations/noironte.html"
    },
    {
    	"id": 32,
        "lat": 47.352505,
        "lng": 5.441291,
        "address": "Rue de la Gare",
        "city": "Talmay",
        "cp": "21270",
        "description": "Talmay",
        "icon": "https://www.interval.coop/images/icons/icon-map-interval.png",
        "mail": "talmay@interval.coop",
        "name": "Talmay",
        "tel": "03 80 36 15 04",
        "url": "/component/mymaplocations/talmay.html"
    },
    {
    	"id": 33,
        "lat": 47.337039,
        "lng": 5.629212,
        "address": "35 Avenue de la Gare",
        "city": "Valay",
        "cp": "70140",
        "description": "Valay",
        "icon": "https://www.interval.coop/images/icons/icon-map-interval.png",
        "mail": "valay@interval.coop",
        "name": "Valay",
        "tel": "03 84 31 50 57",
        "url": "/component/mymaplocations/valay.html"
    },
    {
    	"id": 34,
        "lat": 47.36773,
        "lng": 5.719222,
        "address": "Rue de Gray",
        "city": "Venère",
        "cp": "70100",
        "description": "Venère",
        "icon": "https://www.interval.coop/images/icons/icon-map-interval.png",
        "mail": "venere@interval.coop",
        "name": "Venère",
        "tel": "03 84 31 52 69",
        "url": "/component/mymaplocations/venère.html"
    },
    {
    	"id": 35,
        "lat": 47.136929,
        "lng": 5.596282,
        "address": "20 Rue du Moulin Rouge",
        "city": "Audelange",
        "cp": "39700",
        "description": "Moulin Rouge",
        "icon": "https://www.interval.coop/images/icons/icon-map-interval.png",
        "name": "Moulin Rouge",
        "tel": "03 84 70 60 12",
        "url": "/component/mymaplocations/moulin-rouge.html"
    },
    {
    	"id": 36,
        "lat": 46.996084,
        "lng": 5.343252,
        "address": " D222",
        "city": "Saint-Loup",
        "cp": "39120",
        "description": "Chemin",
        "icon": "https://www.interval.coop/images/icons/icon-map-interval.png",
        "mail": "chemin@interval.coop",
        "name": "Chemin",
        "tel": "03 84 70 80 57",
        "url": "/component/mymaplocations/chemin.html"
    },
    {
    	"id": 37,
        "lat": 47.144366,
        "lng": 5.514532,
        "address": "11 Rue de Dole",
        "city": "Archelange",
        "cp": "39290",
        "description": "Archelange",
        "icon": "https://www.interval.coop/images/icons/icon-map-interval.png",
        "mail": "archelange@interval.coop",
        "name": "Archelange",
        "tel": "03 84 72 61 74",
        "url": "/component/mymaplocations/archelange.html"
    },
    {
    	"id": 38,
        "lat": 46.963503,
        "lng": 5.413772,
        "address": "Zone Industrielle",
        "city": "Chaussin",
        "cp": "39120",
        "description": "Chaussin",
        "icon": "https://www.interval.coop/images/icons/icon-map-interval.png",
        "mail": "chaussin",
        "name": "Chaussin",
        "tel": "03 84 81 76 67",
        "url": "/component/mymaplocations/chaussin.html"
    },
    {
    	"id": 39,
        "lat": 47.145709,
        "lng": 5.657418,
        "address": "Zone industrielle",
        "city": "Orchamps",
        "cp": "39700",
        "description": "Orchamps",
        "icon": "https://www.interval.coop/images/icons/icon-map-interval.png",
        "mail": "orchamps@interval.coop",
        "name": "Orchamps",
        "tel": "03 84 71 36 79",
        "url": "/component/mymaplocations/orchamps.html"
    },
    {
    	"id": 40,
        "lat": 47.0222,
        "lng": 5.50871,
        "address": " Chemin de la Loye",
        "city": "Parcey",
        "cp": "39100",
        "description": "Parcey",
        "icon": "https://www.interval.coop/images/icons/icon-map-interval.png",
        "mail": "parcey@interval.coop",
        "name": "Parcey",
        "tel": "03 84 71 00 83",
        "url": "/component/mymaplocations/parcey.html"
    },
    {
    	"id": 42,
        "lat": 46.939833,
        "lng": 5.333022,
        "address": "11 Rue Lavigne",
        "city": "Petit-Noir",
        "cp": "39120",
        "description": "Petit-Noir",
        "icon": "https://www.interval.coop/images/icons/icon-map-interval.png",
        "mail": "petitnoir@interval.coop",
        "name": "Petit-Noir",
        "tel": "03 84 81 65 35",
        "url": "/component/mymaplocations/petit-noir.html"
    },
    {
    	"id": 43,
        "lat": 47.187287,
        "lng": 5.641133,
        "address": " La Forêt",
        "city": "Sermange",
        "cp": "39700",
        "description": "Sermange",
        "icon": "https://www.interval.coop/images/icons/icon-map-interval.png",
        "mail": "sermange@interval.coop",
        "name": "Sermange",
        "tel": "03 84 81 02 61",
        "url": "/component/mymaplocations/sermange.html"
    },
    {
    	"id": 44,
        "lat": 47.031827,
        "lng": 5.323896,
        "address": "4 Rue François Bachut",
        "city": "Saint-Aubin",
        "cp": "39410",
        "description": "St-Aubin",
        "icon": "https://www.interval.coop/images/icons/icon-map-interval.png",
        "mail": "staubin@interval.coop",
        "name": "St-Aubin",
        "tel": "03 84 70 11 87",
        "url": "/component/mymaplocations/st-aubin.html"
    },
    {
    	"id": 45,
        "lat": 47.046567,
        "lng": 5.421024,
        "address": " Avenue de Friesenheim",
        "city": "Tavaux",
        "cp": "39500",
        "description": "Tavaux",
        "icon": "https://www.interval.coop/images/icons/icon-map-interval.png",
        "mail": "tavaux@interval.coop",
        "name": "Tavaux",
        "tel": "03 84 71 45 06",
        "url": "/component/mymaplocations/tavaux.html"
    },
    {
    	"id": 46,
        "lat": 46.749457,
        "lng": 5.461792,
        "address": "19 Avenue Jean de Chalon-Arlay",
        "city": "Bletterans",
        "cp": "39140",
        "description": "Bletterans",
        "icon": "https://www.interval.coop/images/icons/icon-map-interval.png",
        "mail": "bletterans@interval.coop",
        "name": "Bletterans",
        "tel": "03 84 85 02 73",
        "url": "/component/mymaplocations/bletterans.html"
    },
    {
    	"id": 47,
        "lat": 46.996511,
        "lng": 5.693183,
        "address": "1 Grande Rue",
        "city": "Chamblay",
        "cp": "39380",
        "description": "Chamblay",
        "icon": "https://www.interval.coop/images/icons/icon-map-interval.png",
        "mail": "chamblay@interval.coop",
        "name": "Chamblay",
        "tel": "03 84 37 63 34",
        "url": "/component/mymaplocations/chamblay.html"
    },
    {
    	"id": 48,
        "lat": 46.891971,
        "lng": 5.566946,
        "address": " La Mare aux Renards",
        "city": "Colonne",
        "cp": "39800",
        "description": "Colonne",
        "icon": "https://www.interval.coop/images/icons/icon-map-interval.png",
        "mail": "colonne@interval.coop",
        "name": "Colonne",
        "tel": "03 84 37 58 51",
        "url": "/component/mymaplocations/colonne.html"
    },
    {
    	"id": 49,
        "lat": 46.991538,
        "lng": 5.605802,
        "address": " Route de Belmont",
        "city": "Mont-sous-Vaudrey",
        "cp": "39380",
        "description": "Mont-Sous-Vaudrey",
        "icon": "https://www.interval.coop/images/icons/icon-map-interval.png",
        "mail": "mtsous vaudrey@interval.coop",
        "name": "Mont-Sous-Vaudrey",
        "tel": "03 84 81 52 09",
        "url": "/component/mymaplocations/mont-sous-vaudrey.html"
    },
    {
    	"id": 50,
        "lat": 46.583768,
        "lng": 5.441668,
        "address": " D97",
        "city": "Orbagna",
        "cp": "39190",
        "description": "Orbagna",
        "icon": "https://www.interval.coop/images/icons/icon-map-interval.png",
        "mail": "orbagna@interval.coop",
        "name": "Orbagna",
        "tel": "03 84 25 19 48",
        "url": "/component/mymaplocations/orbagna.html"
    },
    {
    	"id": 51,
        "lat": 46.433198,
        "lng": 5.335069,
        "address": "1 Place de la Gare",
        "city": "Saint-Amour",
        "cp": "39160",
        "description": "St-Amour",
        "icon": "https://www.interval.coop/images/icons/icon-map-interval.png",
        "mail": "stamour@interval.coop",
        "name": "St-Amour",
        "tel": "03 84 48 73 01",
        "url": "/component/mymaplocations/saint-amour.html"
    },
    {
    	"id": 52,
        "lat": 46.752042,
        "lng": 5.253721,
        "address": "104 Route de Sens",
        "city": "Saint-Germain-du-Bois",
        "cp": "71330",
        "description": "St-Germain-du-Bois",
        "icon": "https://www.interval.coop/images/icons/icon-map-interval.png",
        "mail": "stgermain@interval.coop",
        "name": "St-Germain-du-Bois",
        "tel": "03 85 72 01 78",
        "url": "/component/mymaplocations/st-germain-du-bois.html"
    },
    {
    	"id": 53,
        "lat": 46.920992,
        "lng": 5.697181,
        "address": " Sur les Essards",
        "city": "Vadans",
        "cp": "39600",
        "description": "Vadans",
        "icon": "https://www.interval.coop/images/icons/icon-map-interval.png",
        "mail": "vadans@interval.coop",
        "name": "Vadans",
        "tel": "03 84 66 15 71",
        "url": "/component/mymaplocations/vadans.html"
    },
    {
    	"id": 54,
        "lat": 46.923328,
        "lng": 5.886052,
        "address": "29 Route de Champagnole",
        "city": "Salins-les-Bains",
        "cp": "39110",
        "description": "Salins-les-Bains J",
        "icon": "https://www.interval.coop/images/icons/icon-map-interval.png",
        "mail": "",
        "name": "Salins-les-Bains J",
        "tel": "03 84 73 07 34",
        "url": "/component/mymaplocations/salins-les-bains-j.html"
    },
    {
    	"id": 55,
        "lat": 46.40266,
        "lng": 5.560764,
        "address": " Zone Artisanale La Forêt",
        "city": "Arinthod",
        "cp": "39240",
        "description": "Arinthod",
        "icon": "https://www.interval.coop/images/icons/icon-map-interval.png",
        "mail": "arinthod@interval.coop",
        "name": "Arinthod",
        "tel": "03 84 48 57 56",
        "url": "/component/mymaplocations/arinthod.html"
    },
    {
    	"id": 56,
        "lat": 46.743522,
        "lng": 5.917333,
        "address": "30 avenue Clémenceau",
        "city": "Champagnole",
        "cp": "39300",
        "description": "Champagnole",
        "icon": "https://www.interval.coop/images/icons/icon-map-interval.png",
        "mail": "champagnole@interval.coop",
        "name": "Champagnole",
        "tel": "03 84 52 13 05",
        "url": "/component/mymaplocations/champagnole.html"
    },
    {
    	"id": 57,
        "lat": 46.531031,
        "lng": 5.601458,
        "address": "Chemin des Alamans",
        "city": "Orgelet",
        "cp": "39270",
        "description": "Orgelet",
        "icon": "https://www.interval.coop/images/icons/icon-map-interval.png",
        "mail": "orgelet@interval.coop",
        "name": "Orgelet",
        "tel": "03 84 25 47 95",
        "url": "/component/mymaplocations/orgelet.html"
    },
    {
    	"id": 58,
        "lat": 46.673715,
        "lng": 5.580429,
        "address": "Route de Champagnole",
        "city": "Perrigny",
        "cp": "39570",
        "description": "Perrigny",
        "icon": "https://www.interval.coop/images/icons/icon-map-interval.png",
        "mail": "perrigny@interval.coop",
        "name": "Perrigny",
        "tel": "03 84 24 23 30",
        "url": "/component/mymaplocations/perrigny.html"
    },
    {
    	"id": 59,
        "lat": 46.59491,
        "lng": 5.629764,
        "address": "Rue des écoles",
        "city": "Poids-de-Fiole",
        "cp": "39570",
        "description": "Poids de Fiole",
        "icon": "https://www.interval.coop/images/icons/icon-map-interval.png",
        "mail": "poidsdefiole@interval.coop",
        "name": "Poids de Fiole",
        "tel": "03 84 48 36 83",
        "url": "/component/mymaplocations/poids-de-fiole.html"
    },
    {
    	"id": 60,
        "lat": 46.380812,
        "lng": 5.857596,
        "address": "27 bis Rue Carnot",
        "city": "Saint-Claude",
        "cp": "39200",
        "description": "St-Claude",
        "icon": "https://www.interval.coop/images/icons/icon-map-interval.png",
        "mail": "",
        "name": "St-Claude",
        "tel": "03 84 45 07 09",
        "url": "/component/mymaplocations/st-claude-2017-12-21-08-23-17.html"
    },
    {
    	"id": 61,
        "lat": 47.462157,
        "lng": 5.607663,
        "address": "Rond-Point du 1er Mai",
        "city": "Arc-lès-Gray",
        "cp": "70100",
        "description": "Arc-lès-Gray Motoculture",
        "icon": "https://www.interval.coop/images/icons/icon-map-jardival.png",
        "name": "Arc-lès-Gray Motoculture",
        "tel": "03 84 65 18 64",
        "url": "/component/mymaplocations/arc-lès-gray-motoculture.html"
    },
    {
    	"id": 62,
        "lat": 46.919648,
        "lng": 5.765426,
        "address": "29 Route de Villeneuve",
        "city": "Arbois",
        "cp": "39600",
        "description": "Arbois J",
        "icon": "https://www.interval.coop/images/icons/icon-map-jardival.png",
        "mail": "https://www.jardival.fr/magasin/magasin-jardival-de-arbois/",
        "name": "Arbois J",
        "tel": "+33 3 84 66 50 35",
        "url": "/component/mymaplocations/arbois-j.html"
    },
    {
    	"id": 63,
        "lat": 47.513145,
        "lng": 6.998776,
        "address": "4 Boulevard de la Liberté",
        "city": "Delle",
        "cp": "90100",
        "description": "Delle",
        "icon": "https://www.interval.coop/images/icons/icon-map-jardival.png",
        "mail": "delle@jardival.fr",
        "name": "Delle",
        "tel": "03 84 56 67 52",
        "url": "/component/mymaplocations/delle.html"
    },
    {
    	"id": 64,
        "lat": 46.919648,
        "lng": 5.765426,
        "address": "29 Route de Villeneuve",
        "city": "Arbois",
        "cp": "39600",
        "description": "Arbois",
        "icon": "https://www.interval.coop/images/icons/icon-map-interval.png",
        "name": "Arbois",
        "tel": "03 84 66 13 78",
        "url": "/component/mymaplocations/arbois.html"
    },
    {
    	"id": 66,
        "lat": 46.403814,
        "lng": 5.561655,
        "address": " La Forêt",
        "city": "Arinthod",
        "cp": "39240",
        "description": "Arinthod J",
        "icon": "https://www.interval.coop/images/icons/icon-map-jardival.png",
        "mail": "arinthod@jardival.fr",
        "name": "Arinthod J",
        "tel": "03 84 48 57 56",
        "url": "/component/mymaplocations/arinthod-j.html"
    },
    {
    	"id": 67,
        "lat": 46.4561,
        "lng": 5.356006,
        "address": "531 Route de Saint-Amour",
        "city": "Balanod",
        "cp": "39160",
        "description": "Balanod",
        "icon": "https://www.interval.coop/images/icons/icon-map-jardival.png",
        "mail": "balanod@jardival.fr",
        "name": "Balanod",
        "tel": "03 84 47 39 46",
        "url": "/component/mymaplocations/balanod.html"
    },
    {
    	"id": 68,
        "lat": 46.747292,
        "lng": 5.458907,
        "address": "5 Avenue Jean de Chalon-Arlay",
        "city": "Bletterans",
        "cp": "39140",
        "description": "Bletterans  J",
        "icon": "https://www.interval.coop/images/icons/icon-map-jardival.png",
        "mail": "bletterans@jardival.fr",
        "name": "Bletterans  J",
        "tel": "03 84 44 13 47",
        "url": "/component/mymaplocations/bletterans-j.html"
    },
    {
    	"id": 69,
        "lat": 47.415637,
        "lng": 6.779752,
        "address": "8-10 Rue des Pruniers",
        "city": "Bourguignon",
        "cp": "25150",
        "description": "Bourguignon",
        "icon": "https://www.interval.coop/images/icons/icon-map-jardival.png",
        "mail": "bourguignon@jardival.fr",
        "name": "Bourguignon",
        "tel": "03 81 34 41 31",
        "url": "/component/mymaplocations/bourguignon.html"
    },
    {
    	"id": 70,
        "lat": 47.415637,
        "lng": 6.779752,
        "address": "8-10 Rue des Pruniers",
        "city": "Bourguignon",
        "cp": "25150",
        "description": "Bourguignon J",
        "icon": "https://www.interval.coop/images/icons/icon-map-jardival.png",
        "mail": "bourguignon@jardival.fr",
        "name": "Bourguignon J",
        "tel": "03 81 34 41 31",
        "url": "/component/mymaplocations/bourguignon-j.html"
    },
    {
    	"id": 71,
        "lat": 46.743463,
        "lng": 5.91522,
        "address": "30 avenue Clémenceau",
        "city": "Champagnole",
        "cp": "39300",
        "description": "Champagnole J",
        "icon": "https://www.interval.coop/images/icons/icon-map-jardival.png",
        "mail": "champagnole@jardival.fr",
        "name": "Champagnole J",
        "tel": "03 84 52 13 05",
        "url": "/component/mymaplocations/champagnole-j.html"
    },
    {
    	"id": 72,
        "lat": 47.88136,
        "lng": 6.299289,
        "address": "9 Avenue Jacques Parisot",
        "city": "Corbenay",
        "cp": "70320",
        "description": "Corbenay",
        "icon": "https://www.interval.coop/images/icons/icon-map-jardival.png",
        "mail": "corbenay@jardival.fr",
        "name": "Corbenay",
        "tel": "03 84 49 03 13",
        "url": "/component/mymaplocations/corbenay.html"
    },
    {
    	"id": 73,
        "lat": 47.615811,
        "lng": 6.852878,
        "address": "32 Rue des Nos",
        "city": "Danjoutin",
        "cp": "90400",
        "description": "Danjoutin",
        "icon": "https://www.interval.coop/images/icons/icon-map-jardival.png",
        "mail": "danjoutin@jardival.fr",
        "name": "Danjoutin",
        "tel": "03 84 21 33 51",
        "url": "/component/mymaplocations/danjoutin.html"
    },
    {
    	"id": 74,
        "lat": 47.081044,
        "lng": 5.487484,
        "address": "2 Rue Costes et Bellonte",
        "city": "Dole",
        "cp": "39100",
        "description": "Dole",
        "icon": "https://www.interval.coop/images/icons/icon-map-jardival.png",
        "mail": "dole@jardival.fr",
        "name": "Dole",
        "tel": "03 84 72 10 07",
        "url": "/component/mymaplocations/dole.html"
    },
    {
    	"id": 75,
        "lat": 47.887999,
        "lng": 6.404729,
        "address": "27 Grande Rue",
        "city": "Fougerolles",
        "cp": "70220",
        "description": "Fougerolles",
        "icon": "https://www.interval.coop/images/icons/icon-map-jardival.png",
        "mail": "fougerolles@jardival.fr",
        "name": "Fougerolles",
        "tel": "03 84 49 53 20",
        "url": "/component/mymaplocations/fougerolles.html"
    },
    {
    	"id": 76,
        "lat": 47.552056,
        "lng": 5.854069,
        "address": "30 Avenue des Peupliers",
        "city": "Fresne-Saint-Mamès",
        "cp": "70130",
        "description": "Fresne St Mamès",
        "icon": "https://www.interval.coop/images/icons/icon-map-jardival.png",
        "mail": "fresnestmames@jardival.fr",
        "name": "Fresne St Mamès",
        "tel": "03 84 78 01 22",
        "url": "/component/mymaplocations/fresne-st-mamès.html"
    },
    {
    	"id": 77,
        "lat": 47.452971,
        "lng": 5.584072,
        "address": "Rue de la Gare",
        "city": "Gray",
        "cp": "70100",
        "description": "Gray",
        "icon": "https://www.interval.coop/images/icons/icon-map-jardival.png",
        "mail": "gray@jardival.fr",
        "name": "Gray",
        "tel": "03 84 65 15 76",
        "url": "/component/mymaplocations/gray-2017-12-20-21-50-18.html"
    },
    {
    	"id": 78,
        "lat": 47.827817,
        "lng": 5.89771,
        "address": "20 avenue Victor Hugo",
        "city": "Jussey",
        "cp": "70500",
        "description": "Jussey J",
        "icon": "https://www.interval.coop/images/icons/icon-map-jardival.png",
        "mail": "jussey@jardival.fr",
        "name": "Jussey J",
        "tel": "03 84 92 21 48",
        "url": "/component/mymaplocations/jussey-j.html"
    },
    {
    	"id": 79,
        "lat": 47.827625,
        "lng": 5.899118,
        "address": "16 Avenue Victor Hugo",
        "city": "Jussey",
        "cp": "70500",
        "description": "Jussey J Motoculture",
        "icon": "https://www.interval.coop/images/icons/icon-map-jardival.png",
        "mail": "jusseymotoculture@jardival.fr",
        "name": "Jussey J Motoculture",
        "tel": "03 84 68 11 29",
        "url": "/component/mymaplocations/jussey-j-motoculture.html"
    },
    {
    	"id": 80,
        "lat": 46.675504,
        "lng": 5.545055,
        "address": "20 Place du Maréchal Juin",
        "city": "Lons-le-Saunier",
        "cp": "39000",
        "description": "Lons-le-Saunier",
        "icon": "https://www.interval.coop/images/icons/icon-map-jardival.png",
        "mail": "lons@jardival.fr",
        "name": "Lons-le-Saunier",
        "tel": "03 84 24 08 06",
        "url": "/component/mymaplocations/lons-le-saunier.html"
    },
    {
    	"id": 81,
        "lat": 47.666147,
        "lng": 6.503943,
        "address": "Route de la Saline",
        "city": "Lure",
        "cp": "70200",
        "description": "Lure J",
        "icon": "https://www.interval.coop/images/icons/icon-map-jardival.png",
        "mail": "lure@jardival.fr",
        "name": "Lure J",
        "tel": "03 84 30 16 50",
        "url": "/component/mymaplocations/lure-j.html"
    },
    {
    	"id": 82,
        "lat": 47.812779,
        "lng": 6.366958,
        "address": "Avenue du Maréchal Turenne",
        "city": "Luxeuil-les-Bains",
        "cp": "70300",
        "description": "Luxeuil-les-Bains",
        "icon": "https://www.interval.coop/images/icons/icon-map-jardival.png",
        "mail": "luxeuil@jardival.fr",
        "name": "Luxeuil-les-Bains",
        "tel": "03 84 40 03 25",
        "url": "/component/mymaplocations/luxeuil-les-bains.html"
    },
    {
    	"id": 83,
        "lat": 47.292436,
        "lng": 5.779813,
        "address": "25 Avenue de la Gare",
        "city": "Marnay",
        "cp": "70150",
        "description": "Marnay J",
        "icon": "https://www.interval.coop/images/icons/icon-map-jardival.png",
        "mail": "marnay@jardival.fr",
        "name": "Marnay J",
        "tel": "03 84 31 72 55",
        "url": "/component/mymaplocations/marnay-j.html"
    },
    {
    	"id": 84,
        "lat": 47.145709,
        "lng": 5.657418,
        "address": "Zone artisanale",
        "city": "Orchamps",
        "cp": "39700",
        "description": "Orchamps J",
        "icon": "https://www.interval.coop/images/icons/icon-map-jardival.png",
        "mail": "orchamps@jardival.fr",
        "name": "Orchamps J",
        "tel": "03 84 71 36 79",
        "url": "/component/mymaplocations/orchamps-j.html"
    },
    {
    	"id": 85,
        "lat": 46.530995,
        "lng": 5.601578,
        "address": "Chemin des Alamans",
        "city": "Orgelet",
        "cp": "39270",
        "description": "Orgelet J",
        "icon": "https://www.interval.coop/images/icons/icon-map-jardival.png",
        "mail": "orgelet@jardival.fr",
        "name": "Orgelet J",
        "tel": "03 84 25 47 95",
        "url": "/component/mymaplocations/orgelet-j.html"
    },
    {
    	"id": 86,
        "lat": 46.67376,
        "lng": 5.58029,
        "address": "700 Route de Champagnole",
        "city": "Perrigny",
        "cp": "39570",
        "description": "Perrigny J",
        "icon": "https://www.interval.coop/images/icons/icon-map-jardival.png",
        "mail": "perrigny@jardival.fr",
        "name": "Perrigny J",
        "tel": "03 84 24 23 30",
        "url": "/component/mymaplocations/perrigny-j.html"
    },
    {
    	"id": 87,
        "lat": 47.380849,
        "lng": 6.768704,
        "address": "6 Rue de la Gare",
        "city": "Pont-de-Roide",
        "cp": "25150",
        "description": "Pont de Roide",
        "icon": "https://www.interval.coop/images/icons/icon-map-jardival.png",
        "mail": "pontderoide@jardival.fr",
        "name": "Pont de Roide",
        "tel": "03 81 92 40 57",
        "url": "/component/mymaplocations/pont-de-roide.html"
    },
    {
    	"id": 88,
        "lat": 47.691898,
        "lng": 6.052332,
        "address": "14 Route de Villers",
        "city": "Port-sur-Saône",
        "cp": "70170",
        "description": "Port/Saône",
        "icon": "https://www.interval.coop/images/icons/icon-map-jardival.png",
        "mail": "portsursaone@jardival.fr",
        "name": "Port/Saône",
        "tel": "03 84 91 68 92",
        "url": "/component/mymaplocations/port-saône.html"
    },
    {
    	"id": 89,
        "lat": 47.434448,
        "lng": 6.061492,
        "address": "1 Rue Alexandre Graham Bell",
        "city": "Rioz",
        "cp": "70190",
        "description": "Rioz J",
        "icon": "https://www.interval.coop/images/icons/icon-map-jardival.png",
        "mail": "rioz@jardival.fr",
        "name": "Rioz J",
        "tel": "03 84 91 90 48",
        "url": "/component/mymaplocations/rioz-j.html"
    },
    {
    	"id": 90,
        "lat": 47.697572,
        "lng": 6.644259,
        "address": "5 Rue du Plain",
        "city": "Ronchamp",
        "cp": "70250",
        "description": "Ronchamp",
        "icon": "https://www.interval.coop/images/icons/icon-map-jardival.png",
        "mail": "ronchamp@jardival.fr",
        "name": "Ronchamp",
        "tel": "03 84 63 55 28",
        "url": "/component/mymaplocations/ronchamp.html"
    },
    {
    	"id": 91,
        "lat": 46.923293,
        "lng": 5.885939,
        "address": "Route de Champagnole",
        "city": "Salins-les-Bains",
        "cp": "39110",
        "description": "Salins les Bains",
        "icon": "https://www.interval.coop/images/icons/icon-map-jardival.png",
        "mail": "salins@jardival.fr",
        "name": "Salins les Bains",
        "tel": "03 84 73 07 34",
        "url": "/component/mymaplocations/salins-les-bains-2017-12-20-22-12-32.html"
    },
    {
    	"id": 92,
        "lat": 46.38088,
        "lng": 5.858091,
        "address": "27 rue Carnot",
        "city": "Saint-Claude",
        "cp": "39200",
        "description": "St Claude",
        "icon": "https://www.interval.coop/images/icons/icon-map-jardival.png",
        "mail": "stclaude@jardival.fr",
        "name": "St Claude",
        "tel": "03 84 45 07 09",
        "url": "/component/mymaplocations/st-claude.html"
    },
    {
    	"id": 93,
        "lat": 46.753014,
        "lng": 5.252417,
        "address": "Zone artisanale",
        "city": "Saint-Germain-du-Bois",
        "cp": "71330",
        "description": "St Germain du Bois J",
        "icon": "https://www.interval.coop/images/icons/icon-map-jardival.png",
        "mail": "stgermaindubois@jardival.fr",
        "name": "St Germain du Bois J",
        "tel": "03 85 72 02 78",
        "url": "/component/mymaplocations/st-germain-du-bois-j.html"
    },
    {
    	"id": 94,
        "lat": 47.622364,
        "lng": 6.138127,
        "address": "Rue des Faines",
        "city": "Noidans-lès-Vesoul",
        "cp": "70000",
        "description": "Noidans les Vesoul",
        "icon": "https://www.interval.coop/images/icons/icon-map-jardival.png",
        "mail": "vesoul@jardival.fr",
        "name": "Noidans les Vesoul",
        "tel": "03 84 76 59 80",
        "url": "/component/mymaplocations/noidans-les-vesoul.html"
    },
    {
    	"id": 95,
        "lat": 47.549829,
        "lng": 6.432081,
        "address": "20 Rue de la Croix Marmin",
        "city": "Villersexel",
        "cp": "70110",
        "description": "Villersexel J",
        "icon": "https://www.interval.coop/images/icons/icon-map-jardival.png",
        "mail": "villersexel@jardival.fr",
        "name": "Villersexel J",
        "tel": "03 84 63 41 84",
        "url": "/component/mymaplocations/villersexel-j.html"
    }
]